{
  "324 Стрелковой дивизии, 10": {
    "geometry": {
      "type": "Point",
      "coordinates": [
        47.286445,
        56.10539
      ]
    },
    "address": "улица 324-й Стрелковой Дивизии, 10"
  },
  "Эльгера, 24": {
    "geometry": {
      "type": "Point",
      "coordinates": [
        47.180974,
        56.145234
      ]
    },
    "address": "улица Эльгера, 24"
  },
  " Энгельса  10 ": {
    "geometry": {
      "type": "Point",
      "coordinates": [
        47.252875,
        56.127081
      ]
    },
    "address": "улица Энгельса, 10"
  },
  "Энгельса, 1А": {
    "geometry": {
      "type": "Point",
      "coordinates": [
        47.254699,
        56.128355
      ]
    },
    "address": "улица Энгельса, 1А"
  },
  "Президентский бульв.  д.21 ": {
    "geometry": {
      "type": "Point",
      "coordinates": [
        47.243649,
        56.137059
      ]
    },
    "address": "Президентский бульвар, 21"
  },
  " ул. Баумана  д.4 ": {
    "geometry": {
      "type": "Point",
      "coordinates": [
        47.30425,
        56.107272
      ]
    },
    "address": "улица Баумана, 4"
  },
  " ул. Гражданская  д.50 ": {
    "geometry": {
      "type": "Point",
      "coordinates": [
        47.205354,
        56.1255
      ]
    },
    "address": "Гражданская улица, 50"
  },
  " ул. Шевченко  д.2 ": {
    "geometry": {
      "type": "Point",
      "coordinates": [
        47.245437,
        56.129188
      ]
    },
    "address": "улица Шевченко, 2"
  },
  "ул. 139 Стрелковой дивизии, 12": {
    "geometry": {
      "type": "Point",
      "coordinates": [
        47.172826,
        56.142486
      ]
    },
    "address": "улица 139-й Стрелковой Дивизии, 12"
  },
  " ул. Чернышевского  д.4/19 ": {
    "geometry": {
      "type": "Point",
      "coordinates": [
        47.183346,
        56.114044
      ]
    },
    "address": "улица Чернышевского, 4/19"
  },
  " ул. Баумана  д.10 ": {
    "geometry": {
      "type": "Point",
      "coordinates": [
        47.306361,
        56.103608
      ]
    },
    "address": "улица Баумана, 10"
  },
  " ул. Лен. Комсомола  д.74 ": {
    "geometry": {
      "type": "Point",
      "coordinates": [
        47.314014,
        56.108899
      ]
    },
    "address": "улица Ленинского Комсомола, 74"
  },
  " ул. Николаева  д.1 ": {
    "geometry": {
      "type": "Point",
      "coordinates": [
        47.255435,
        56.118119
      ]
    },
    "address": "улица Космонавта А.Г. Николаева, 1"
  },
  " Эгерский бульв.  5А ": {
    "geometry": {
      "type": "Point",
      "coordinates": [
        47.27209,
        56.110048
      ]
    },
    "address": "Эгерский бульвар, 5А"
  },
  " ул. Афанасьева  д.11 ": {
    "geometry": {
      "type": "Point",
      "coordinates": [
        47.217428,
        56.150033
      ]
    },
    "address": "улица Афанасьева, 11"
  },
  " ул. Хузангая д.8 ": {
    "geometry": {
      "type": "Point",
      "coordinates": [
        47.272881,
        56.098562
      ]
    },
    "address": "улица Хузангая, 8"
  },
  " пр. Ленина  д.55А ": {
    "geometry": {
      "type": "Point",
      "coordinates": [
        47.260439,
        56.116417
      ]
    },
    "address": "проспект Ленина, 55А"
  },
  " Ленина  55А ": {
    "geometry": {
      "type": "Point",
      "coordinates": [
        47.260439,
        56.116417
      ]
    },
    "address": "проспект Ленина, 55А"
  },
  " Ашмарина  33 ": {
    "geometry": {
      "type": "Point",
      "coordinates": [
        47.283912,
        56.082843
      ]
    },
    "address": "улица Ашмарина, 33"
  },
  " Рихарда Зорге  9 ": {
    "geometry": {
      "type": "Point",
      "coordinates": [
        47.279438,
        56.076232
      ]
    },
    "address": "улица Рихарда Зорге, 9"
  },
  " 9-й Пятилетки  11 ": {
    "geometry": {
      "type": "Point",
      "coordinates": [
        47.277803,
        56.097503
      ]
    },
    "address": "проспект 9-й Пятилетки, 11"
  },
  " Николаева   31 ": {
    "geometry": {
      "type": "Point",
      "coordinates": [
        47.273393,
        56.1254
      ]
    },
    "address": "улица Космонавта А.Г. Николаева, 31"
  },
  " Шумилова  33 ": {
    "geometry": {
      "type": "Point",
      "coordinates": [
        47.290919,
        56.104391
      ]
    },
    "address": "улица Шумилова, 33"
  },
  " Кадыкова  16А ": {
    "geometry": {
      "type": "Point",
      "coordinates": [
        47.295967,
        56.101961
      ]
    },
    "address": "улица Кадыкова, 16А"
  },
  " Ахазова  9А ": {
    "geometry": {
      "type": "Point",
      "coordinates": [
        47.17421,
        56.146272
      ]
    },
    "address": "улица Ахазова, 9А"
  },
  " Кукшумская  23 ": {
    "geometry": {
      "type": "Point",
      "coordinates": [
        47.286149,
        56.089915
      ]
    },
    "address": "Кукшумская улица, 23"
  },
  " Хузангая  23 ": {
    "geometry": {
      "type": "Point",
      "coordinates": [
        47.277345,
        56.092883
      ]
    },
    "address": "улица Хузангая, 23"
  },
  " Матэ Залка  4/11 ": {
    "geometry": {
      "type": "Point",
      "coordinates": [
        47.18825,
        56.1157
      ]
    },
    "address": "улица Мате Залка, 2/76"
  },
  "139 Стрелковой дивизии, 14": {
    "geometry": {
      "type": "Point",
      "coordinates": [
        47.174587,
        56.142947
      ]
    },
    "address": "улица 139-й Стрелковой Дивизии, 14"
  },
  " Лен. Комсомола  54 ": {
    "geometry": {
      "type": "Point",
      "coordinates": [
        47.299426,
        56.107182
      ]
    },
    "address": "улица Ленинского Комсомола, 54"
  },
  " Тракторостроителей  38 ": {
    "geometry": {
      "type": "Point",
      "coordinates": [
        47.307996,
        56.100947
      ]
    },
    "address": "проспект Тракторостроителей, 38"
  },
  " Лебедева  13 ": {
    "geometry": {
      "type": "Point",
      "coordinates": [
        47.16458,
        56.146086
      ]
    },
    "address": "улица Лебедева, 13"
  },
  " Миттова  47 ": {
    "geometry": {
      "type": "Point",
      "coordinates": [
        47.185906,
        56.109421
      ]
    },
    "address": "бульвар Анатолия Миттова, 47"
  },
  " Чернышевского  16 ": {
    "geometry": {
      "type": "Point",
      "coordinates": [
        47.177372,
        56.117993
      ]
    },
    "address": "улица Чернышевского, 16"
  },
  " М. Павлова  78 ": {
    "geometry": {
      "type": "Point",
      "coordinates": [
        47.157178,
        56.136994
      ]
    },
    "address": "улица Мичмана Павлова, 78"
  },
  " Миттова  23 ": {
    "geometry": {
      "type": "Point",
      "coordinates": [
        47.193425,
        56.112568
      ]
    },
    "address": "бульвар Анатолия Миттова, 23"
  },
  "   Лебедева  23 ": {
    "geometry": {
      "type": "Point",
      "coordinates": [
        47.163933,
        56.144005
      ]
    },
    "address": "улица Лебедева, 23"
  },
  " ул. Афанасьева  9А ": {
    "geometry": {
      "type": "Point",
      "coordinates": [
        47.217661,
        56.14893
      ]
    },
    "address": "улица Афанасьева, 9А"
  },
  "ул. Чапаева  1Б ": {
    "geometry": {
      "type": "Point",
      "coordinates": [
        47.258597,
        56.1299
      ]
    },
    "address": "улица Чапаева, 1Б"
  },
  " ул. А. Никитина 3 ": {
    "geometry": {
      "type": "Point",
      "coordinates": [
        47.282843,
        56.075911
      ]
    },
    "address": "улица Афанасия Никитина, 3"
  },
  " ул. Промышленная  9 ": {
    "geometry": {
      "type": "Point",
      "coordinates": [
        47.169781,
        56.109471
      ]
    },
    "address": "Промышленная улица, 9"
  },
  " ул. Хевешская  7 А ": {
    "geometry": {
      "type": "Point",
      "coordinates": [
        47.269368,
        56.105887
      ]
    },
    "address": "Хевешская улица, 7А"
  },
  " ул. Гузовского  18А ": {
    "geometry": {
      "type": "Point",
      "coordinates": [
        47.187711,
        56.143599
      ]
    },
    "address": "улица Гузовского, 18"
  },
  " ул. М. Павлова  6А ": {
    "geometry": {
      "type": "Point",
      "coordinates": [
        47.191646,
        56.143985
      ]
    },
    "address": "улица Мичмана Павлова, 6А"
  },
  " ул. Урукова  13 ": {
    "geometry": {
      "type": "Point",
      "coordinates": [
        47.210636,
        56.141026
      ]
    },
    "address": "улица Урукова, 13"
  },
  " ул. М. Павлова  11 ": {
    "geometry": {
      "type": "Point",
      "coordinates": [
        47.189463,
        56.141573
      ]
    },
    "address": "улица Мичмана Павлова, 11"
  },
  " ул. Т. Кривова  7/1 ": {
    "geometry": {
      "type": "Point",
      "coordinates": [
        47.193802,
        56.141643
      ]
    },
    "address": "улица Тимофея Кривова, 7к1"
  },
  " ул. Волкова  2/18 ": {
    "geometry": {
      "type": "Point",
      "coordinates": [
        47.279097,
        56.083903
      ]
    },
    "address": "улица Волкова, 2/18"
  },
  " пр. Мира  19А ": {
    "geometry": {
      "type": "Point",
      "coordinates": [
        47.268443,
        56.108673
      ]
    },
    "address": "проспект Мира, 19А"
  },
  " ул. Грасиса  2А ": {
    "geometry": {
      "type": "Point",
      "coordinates": [
        47.201348,
        56.124542
      ]
    },
    "address": "улица Грасиса, 2А"
  },
  " ул. Шумилова  25 ": {
    "geometry": {
      "type": "Point",
      "coordinates": [
        47.285394,
        56.104095
      ]
    },
    "address": "улица Шумилова, 25"
  },
  " ул. 2-ая Чапаева  24 ": {
    "geometry": {
      "type": "Point",
      "coordinates": [
        47.258301,
        56.13144
      ]
    },
    "address": "2-я улица Чапаева, 24"
  },
  " ул. Энтузиастов  18А ": {
    "geometry": {
      "type": "Point",
      "coordinates": [
        47.193775,
        56.125636
      ]
    },
    "address": "улица Энтузиастов, 18А"
  },
  " ул. Ашмарина  25А ": {
    "geometry": {
      "type": "Point",
      "coordinates": [
        47.281154,
        56.081808
      ]
    },
    "address": "улица Ашмарина, 25"
  },
  "  ул. Ашмарина  34Б ": {
    "geometry": {
      "type": "Point",
      "coordinates": [
        47.283157,
        56.080989
      ]
    },
    "address": "улица Ашмарина, 34Б"
  },
  " Эгерский бульвар  7А ": {
    "geometry": {
      "type": "Point",
      "coordinates": [
        47.272701,
        56.11061
      ]
    },
    "address": "Эгерский бульвар, 7А"
  },
  " Тракторостроителей  26 ": {
    "geometry": {
      "type": "Point",
      "coordinates": [
        47.305552,
        56.10058
      ]
    },
    "address": "проспект Тракторостроителей, 26"
  },
  " Тракторостроителей  50 ": {
    "geometry": {
      "type": "Point",
      "coordinates": [
        47.31299,
        56.102368
      ]
    },
    "address": "проспект Тракторостроителей, 50"
  },
  " ул. Совхозная  д. 9 А ": {
    "geometry": {
      "type": "Point",
      "coordinates": [
        47.217886,
        56.069796
      ]
    },
    "address": "Совхозная улица, 9А"
  },
  "пр. Тракторостроителей, 99": {
    "geometry": {
      "type": "Point",
      "coordinates": [
        47.330382,
        56.115369
      ]
    },
    "address": "проспект Тракторостроителей, 99"
  },
  " Социалистическая  17Б ": {
    "geometry": {
      "type": "Point",
      "coordinates": [
        47.179573,
        56.111163
      ]
    },
    "address": "Социалистическая улица, 17"
  },
  " ул. Шевченко  д. 1 ": {
    "geometry": {
      "type": "Point",
      "coordinates": [
        47.244368,
        56.129925
      ]
    },
    "address": "улица Шевченко, 1"
  },
  "Сосновка, Школьный переулок, 2": {
    "geometry": {
      "type": "Point",
      "coordinates": [
        47.219646,
        56.185096
      ]
    },
    "address": "Школьный переулок, 2"
  },
  " ул. Чапаева  41А ": {
    "geometry": {
      "type": "Point",
      "coordinates": [
        47.259226,
        56.128787
      ]
    },
    "address": "улица Чапаева, 41А"
  },
  " пл. Победы  3 ": {
    "geometry": {
      "type": "Point",
      "coordinates": [
        47.17244,
        56.1092
      ]
    },
    "address": "площадь Победы, 3"
  },
  " ул.Б.Хмельницкого  75 ": {
    "geometry": {
      "type": "Point",
      "coordinates": [
        47.227237,
        56.120738
      ]
    },
    "address": "улица Богдана Хмельницкого, 75"
  },
  " ул. Гайдара  3 ": {
    "geometry": {
      "type": "Point",
      "coordinates": [
        47.267149,
        56.144497
      ]
    },
    "address": "улица Аркадия Гайдара, 3"
  },
  " ул. Комунальная слобода  16 ": {
    "geometry": {
      "type": "Point",
      "coordinates": [
        47.232726,
        56.134691
      ]
    },
    "address": "улица Коммунальная Слобода, 15"
  },
  " Шумилова  8 ": {
    "geometry": {
      "type": "Point",
      "coordinates": [
        47.277363,
        56.100846
      ]
    },
    "address": "улица Шумилова, 8"
  },
  " ул. Энтузиастов 20 ": {
    "geometry": {
      "type": "Point",
      "coordinates": [
        47.192769,
        56.124657
      ]
    },
    "address": "улица Энтузиастов, 20"
  },
  " ул. Кукшумская  19 ": {
    "geometry": {
      "type": "Point",
      "coordinates": [
        47.282322,
        56.089403
      ]
    },
    "address": "Кукшумская улица, 19"
  },
  " П.Лумумбы  17 ": {
    "geometry": {
      "type": "Point",
      "coordinates": [
        47.279825,
        56.131626
      ]
    },
    "address": "улица Патриса Лумумбы, 17"
  },
  " М.Павлова.  9 ": {
    "geometry": {
      "type": "Point",
      "coordinates": [
        47.190451,
        56.141793
      ]
    },
    "address": "улица Мичмана Павлова, 9"
  },
  " ул.Кривова  15А ": {
    "geometry": {
      "type": "Point",
      "coordinates": [
        47.190182,
        56.144858
      ]
    },
    "address": "улица Тимофея Кривова, 15А"
  },
  " П.Лумубы  10А ": {
    "geometry": {
      "type": "Point",
      "coordinates": [
        47.277219,
        56.130061
      ]
    },
    "address": "улица Патриса Лумумбы, 10А"
  },
  " Урукова  11А ": {
    "geometry": {
      "type": "Point",
      "coordinates": [
        47.212128,
        56.14076
      ]
    },
    "address": "улица Урукова, 11А"
  },
  " пр. Мира  16 ": {
    "geometry": {
      "type": "Point",
      "coordinates": [
        47.283714,
        56.128902
      ]
    },
    "address": "проспект Мира, 16"
  },
  " Николаева  28 ": {
    "geometry": {
      "type": "Point",
      "coordinates": [
        47.277273,
        56.124181
      ]
    },
    "address": "улица Космонавта А.Г. Николаева, 28"
  },
  " Хевешская  17 ": {
    "geometry": {
      "type": "Point",
      "coordinates": [
        47.268542,
        56.107117
      ]
    },
    "address": "Хевешская улица, 17"
  },
  " Эльгера  22 ": {
    "geometry": {
      "type": "Point",
      "coordinates": [
        47.179034,
        56.145495
      ]
    },
    "address": "улица Эльгера, 22"
  },
  " Совхозная  9 ": {
    "geometry": {
      "type": "Point",
      "coordinates": [
        47.231828,
        56.132193
      ]
    },
    "address": "Совхозная площадь, 9"
  },
  " М.Павлова  50/1 ": {
    "geometry": {
      "type": "Point",
      "coordinates": [
        47.170688,
        56.139652
      ]
    },
    "address": "улица Мичмана Павлова, 50/1"
  },
  " Лен. комсомола  86 ": {
    "geometry": {
      "type": "Point",
      "coordinates": [
        47.323501,
        56.109155
      ]
    },
    "address": "улица Ленинского Комсомола, 86"
  },
  " Мира  88 ": {
    "geometry": {
      "type": "Point",
      "coordinates": [
        47.264652,
        56.110073
      ]
    },
    "address": "проспект Мира, 88А"
  },
  " Розы Люксембург  8 ": {
    "geometry": {
      "type": "Point",
      "coordinates": [
        47.283103,
        56.067329
      ]
    },
    "address": "улица Розы Люксембург, 8"
  }
}